%time,field.header.seq,field.header.stamp,field.header.frame_id,field.latitude,field.longitude,field.altitude,field.relative_altitude
1631534967448078667,397504,1631534967218910904,,67.796257019,21.0725784302,402.209991455,22.5890007019
1631534967453822877,397505,1631534967345365668,,67.796257019,21.0725784302,402.470001221,22.8470001221
1631534967476562917,397506,1631534967473141614,,67.796257019,21.0725784302,402.720001221,23.0990009308
1631534967602056724,397507,1631534967596021475,,67.796257019,21.0725784302,402.950012207,23.329000473
1631534967722284016,397508,1631534967718741944,,67.796257019,21.0725784302,403.160003662,23.5300006866
1631534967853934800,397509,1631534967846131363,,67.796257019,21.0725784302,403.320007324,23.6970005035
1631534967981671801,397510,1631534967968516345,,67.796257019,21.0725784302,403.459991455,23.8339996338
1631534968103837488,397511,1631534968098602941,,67.796257019,21.0725784302,403.570007324,23.9440002441
1631534968222671279,397512,1631534968218840568,,67.796257019,21.0725784302,403.649993896,24.0230007172
1631534968348842204,397513,1631534968345172421,,67.796257019,21.0725784302,403.709991455,24.0799999237
1631534968475681192,397514,1631534968473620781,,67.796257019,21.0725784302,403.739990234,24.1180000305
1631534968603436145,397515,1631534968596115587,,67.796257019,21.0725784302,403.769989014,24.1450004578
1631534968722491312,397516,1631534968718931256,,67.796257019,21.0725784302,403.790008545,24.1620006561
1631534968848728925,397517,1631534968845317157,,67.796257019,21.0725784302,403.799987793,24.1770000458
1631534968970748308,397518,1631534968968363290,,67.796257019,21.0725784302,403.820007324,24.1909999847
1631534969103980944,397519,1631534969099772122,,67.796257019,21.0725784302,403.839996338,24.2099990845
1631534969222998351,397520,1631534969218755801,,67.796257019,21.0725784302,403.859985352,24.232000351
1631534969354222288,397521,1631534969345418373,,67.796257019,21.0725784302,403.890014648,24.2609996796
1631534969481678682,397522,1631534969477067461,,67.796257019,21.0725784302,403.920013428,24.2919998169
1631534969603130066,397523,1631534969600455449,,67.796257019,21.0725784302,403.950012207,24.3229999542
1631534969721490291,397524,1631534969718786201,,67.796257019,21.0725784302,403.980010986,24.3509998322
1631534969854959566,397525,1631534969850251610,,67.796257019,21.0725784302,404.010009766,24.3799991608
1631534969972312497,397526,1631534969968281979,,67.796257019,21.0725784302,404.029998779,24.4029998779
1631534970102581236,397527,1631534970099087485,,67.796257019,21.0725784302,404.049987793,24.4200000763
1631534970221880690,397528,1631534970218921721,,67.796257019,21.0725784302,404.059997559,24.4349994659
1631534970355082222,397529,1631534970351050936,,67.796257019,21.0725784302,404.079986572,24.4500007629
1631534970478177411,397530,1631534970473443598,,67.796257019,21.0725784302,404.079986572,24.4570007324
1631534970605695085,397531,1631534970602991699,,67.796257019,21.0725784302,404.089996338,24.4629993439
1631534970721972178,397532,1631534970718858426,,67.796257019,21.0725784302,404.089996338,24.4650001526
1631534970848065728,397533,1631534970845521734,,67.796257019,21.0725784302,404.089996338,24.4619998932
1631534970970384246,397534,1631534970968278427,,67.796257019,21.0725784302,404.079986572,24.454000473
1631534971099068061,397535,1631534971096263364,,67.796257019,21.0725784302,404.070007324,24.4440002441
1631534971222928752,397536,1631534971219420185,,67.796257019,21.0725784302,404.059997559,24.436000824
1631534971355366798,397537,1631534971346870595,,67.796257019,21.0725784302,404.059997559,24.4319992065
1631534971485691633,397538,1631534971472870033,,67.796257019,21.0725784302,404.059997559,24.4330005646
1631534971603131476,397539,1631534971600545882,,67.796257019,21.0725784302,404.070007324,24.4400005341
1631534971721592500,397540,1631534971718654715,,67.796257019,21.0725784302,404.079986572,24.4549999237
1631534971848861823,397541,1631534971845378887,,67.796257019,21.0725784302,404.100006104,24.4740009308
1631534971976563464,397542,1631534971968428924,,67.796257019,21.0725784302,404.119995117,24.4930000305
1631534972104623953,397543,1631534972095822086,,67.796257019,21.0725784302,404.130004883,24.5090007782
1631534972224040238,397544,1631534972218809339,,67.796257019,21.0725784302,404.149993896,24.5189990997
1631534972359678373,397545,1631534972349821373,,67.796257019,21.0725784302,404.149993896,24.5259990692
1631534972480608351,397546,1631534972476153578,,67.796257019,21.0725784302,404.160003662,24.5310001373
1631534972605775982,397547,1631534972600477755,,67.796257019,21.0725784302,404.160003662,24.531999588
1631534972721833108,397548,1631534972718842204,,67.796257019,21.0725784302,404.160003662,24.5300006866
1631534972853325333,397549,1631534972845332296,,67.796257019,21.0725784302,404.149993896,24.5259990692
1631534972970611768,397550,1631534972968466077,,67.796257019,21.0725784302,404.149993896,24.5230007172
1631534973104092435,397551,1631534973096087879,,67.796257019,21.0725784302,404.149993896,24.5209999084
1631534973222453171,397552,1631534973218946140,,67.796257019,21.0725784302,404.149993896,24.5209999084
1631534973349269471,397553,1631534973345486760,,67.796257019,21.0725784302,404.140014648,24.5189990997
1631534973479481731,397554,1631534973475419596,,67.796257019,21.0725784302,404.140014648,24.5119991302
1631534973608246090,397555,1631534973600294845,,67.796257019,21.0725784302,404.130004883,24.5020008087
1631534973729752834,397556,1631534973718900413,,67.796257019,21.0725784302,404.119995117,24.4909992218
1631534973856266639,397557,1631534973845208426,,67.796257019,21.0725784302,404.100006104,24.4790000916
1631534973971375351,397558,1631534973968793469,,67.796257019,21.0725784302,404.089996338,24.466999054
1631534974104252980,397559,1631534974095831624,,67.796257019,21.0725784302,404.079986572,24.4570007324
1631534974223812145,397560,1631534974218828541,,67.796257019,21.0725784302,404.079986572,24.4510002136
1631534974348746178,397561,1631534974345502634,,67.796257019,21.0725784302,404.070007324,24.4440002441
1631534974475330798,397562,1631534974472603989,,67.796257019,21.0725784302,404.059997559,24.438999176
1631534974607092590,397563,1631534974598763970,,67.796257019,21.0725784302,404.059997559,24.4379997253
1631534974721426264,397564,1631534974718718142,,67.796257019,21.0725784302,404.059997559,24.4370002747
1631534974851351388,397565,1631534974846019145,,67.796257019,21.0725784302,404.059997559,24.436000824
1631534974971213401,397566,1631534974968427711,,67.796257019,21.0725784302,404.059997559,24.4349994659
1631534975103107992,397567,1631534975096852647,,67.796257019,21.0725784302,404.059997559,24.4370002747
1631534975222024599,397568,1631534975218746911,,67.796257019,21.0725784302,404.070007324,24.4419994354
1631534975353317080,397569,1631534975345210796,,67.796257019,21.0725784302,404.079986572,24.4510002136
1631534975480373699,397570,1631534975474447185,,67.796257019,21.0725784302,404.089996338,24.4599990845
1631534975604323638,397571,1631534975598937507,,67.796257019,21.0725784302,404.100006104,24.4710006714
1631534975724784177,397572,1631534975719895101,,67.796257019,21.0725784302,404.109985352,24.4799995422
1631534975849818817,397573,1631534975845383564,,67.796257019,21.0725784302,404.109985352,24.4839992523
1631534975978616264,397574,1631534975968676608,,67.796257019,21.0725784302,404.109985352,24.4829998016
1631534976100127425,397575,1631534976095495532,,67.796257019,21.0725784302,404.109985352,24.4799995422
1631534976227168428,397576,1631534976218689825,,67.796257019,21.0725784302,404.109985352,24.4799995422
1631534976348319558,397577,1631534976345374829,,67.796257019,21.0725784302,404.109985352,24.482000351
1631534976479824806,397578,1631534976473646901,,67.796257019,21.0725784302,404.109985352,24.4829998016
1631534976605786196,397579,1631534976598833349,,67.796257019,21.0725784302,404.100006104,24.4769992828
1631534976724334612,397580,1631534976718884673,,67.796257019,21.0725784302,404.089996338,24.4629993439
1631534976849440516,397581,1631534976845423277,,67.796257019,21.0725784302,404.079986572,24.452999115
1631534976982036737,397582,1631534976975118770,,67.796257019,21.0725784302,404.070007324,24.4459991455
1631534977107307345,397583,1631534977101327616,,67.796257019,21.0725784302,404.070007324,24.4479999542
1631534977221403868,397584,1631534977218679938,,67.796257019,21.0725784302,404.079986572,24.452999115
1631534977350020195,397585,1631534977345102479,,67.796257019,21.0725803375,404.089996338,24.4629993439
1631534977476817871,397586,1631534977472092346,,67.796257019,21.0725803375,404.100006104,24.4780006409
1631534977602625469,397587,1631534977597792521,,67.796257019,21.0725803375,404.119995117,24.4960002899
1631534977724023350,397588,1631534977718827811,,67.796257019,21.0725803375,404.140014648,24.5170001984
1631534977848389736,397589,1631534977845255088,,67.796257019,21.0725822449,404.160003662,24.531999588
1631534977970360672,397590,1631534977968291365,,67.796257019,21.0725822449,404.160003662,24.5340003967
1631534978101818336,397591,1631534978095442160,,67.796257019,21.0725822449,404.149993896,24.5289993286
1631534978221043902,397592,1631534978218722852,,67.796257019,21.0725822449,404.140014648,24.5189990997
1631534978351263618,397593,1631534978346381678,,67.796257019,21.0725822449,404.130004883,24.5090007782
1631534978480309864,397594,1631534978474927989,,67.796257019,21.0725822449,404.119995117,24.4990005493
1631534978601651266,397595,1631534978596844877,,67.796257019,21.0725822449,404.119995117,24.4930000305
1631534978722888731,397596,1631534978718614565,,67.796257019,21.0725822449,404.119995117,24.4920005798
1631534978852367712,397597,1631534978845240882,,67.796257019,21.0725822449,404.109985352,24.4880008698
1631534978971873822,397598,1631534978968894117,,67.796257019,21.0725822449,404.109985352,24.4850006104
1631534979104675611,397599,1631534979100361766,,67.796257019,21.0725822449,404.109985352,24.4829998016
1631534979221123328,397600,1631534979218755078,,67.796257019,21.0725822449,404.109985352,24.4799995422
1631534979354818331,397601,1631534979345780721,,67.796257019,21.0725822449,404.100006104,24.4769992828
1631534979484000545,397602,1631534979477797232,,67.796257019,21.0725822449,404.100006104,24.4759998322
1631534979603443743,397603,1631534979597189838,,67.796257019,21.0725822449,404.100006104,24.4740009308
1631534979724126106,397604,1631534979718938407,,67.796257019,21.0725822449,404.100006104,24.4710006714
1631534979851048262,397605,1631534979845502387,,67.796257019,21.0725822449,404.089996338,24.4689998627
1631534979970195940,397606,1631534979968323177,,67.796257019,21.0725822449,404.089996338,24.466999054
1631534980103356288,397607,1631534980097963886,,67.796257019,21.0725803375,404.089996338,24.466999054
1631534980222913694,397608,1631534980219193095,,67.796257019,21.0725803375,404.089996338,24.466999054
1631534980354754078,397609,1631534980345649588,,67.796257019,21.0725803375,404.089996338,24.468000412
1631534980477134484,397610,1631534980473358749,,67.796257019,21.0725803375,404.100006104,24.4699993134
1631534980604296031,397611,1631534980597051985,,67.796257019,21.0725803375,404.100006104,24.4729995728
1631534980724415099,397612,1631534980718633641,,67.796257019,21.0725803375,404.100006104,24.4759998322
1631534980853702433,397613,1631534980845366934,,67.796257019,21.0725803375,404.109985352,24.4810009003
1631534980971072164,397614,1631534980968420203,,67.796257019,21.0725803375,404.109985352,24.4839992523
1631534981102880036,397615,1631534981098687054,,67.796257019,21.0725803375,404.109985352,24.486000061
1631534981223896382,397616,1631534981218878858,,67.796257019,21.0725803375,404.109985352,24.4869995117
1631534981355331454,397617,1631534981345687830,,67.796257019,21.0725803375,404.109985352,24.4880008698
1631534981481928139,397618,1631534981473952990,,67.796257019,21.0725803375,404.119995117,24.4909992218
1631534981601758216,397619,1631534981596363829,,67.796257019,21.0725803375,404.119995117,24.4909992218
1631534981724402206,397620,1631534981718545740,,67.796257019,21.0725803375,404.119995117,24.4920005798
1631534981853618948,397621,1631534981845142744,,67.796257019,21.0725803375,404.119995117,24.4939994812
1631534981976073018,397622,1631534981968479373,,67.796257019,21.0725803375,404.119995117,24.4939994812
1631534982104405443,397623,1631534982098330897,,67.796257019,21.0725803375,404.109985352,24.4890003204
1631534982221902725,397624,1631534982218873868,,67.796257019,21.0725803375,404.109985352,24.4810009003
1631534982353703813,397625,1631534982345218138,,67.796257019,21.0725803375,404.100006104,24.4759998322
1631534982476790714,397626,1631534982474443296,,67.796257019,21.0725784302,404.100006104,24.4740009308
1631534982601109932,397627,1631534982596071160,,67.796257019,21.0725784302,404.100006104,24.4720001221
1631534982721915046,397628,1631534982718744942,,67.796257019,21.0725784302,404.100006104,24.4710006714
1631534982856806111,397629,1631534982845355162,,67.796257019,21.0725784302,404.100006104,24.4710006714
1631534982973811202,397630,1631534982969038094,,67.796257019,21.0725784302,404.100006104,24.4729995728
1631534983112320114,397631,1631534983105983553,,67.796257019,21.0725784302,404.100006104,24.4769992828
1631534983221555848,397632,1631534983218711983,,67.796257019,21.0725784302,404.100006104,24.4729995728
1631534983355231524,397633,1631534983347129399,,67.796257019,21.0725784302,404.089996338,24.4650001526
1631534983473659876,397634,1631534983470103213,,67.796257019,21.0725784302,404.079986572,24.4549999237
1631534983612263155,397635,1631534983602590027,,67.796257019,21.0725784302,404.079986572,24.454000473
1631534983725548736,397636,1631534983718656433,,67.796257019,21.0725784302,404.089996338,24.4619998932
1631534983858080478,397637,1631534983851190543,,67.796257019,21.0725784302,404.100006104,24.4759998322
1631534983970163566,397638,1631534983968314578,,67.796257019,21.0725784302,404.119995117,24.4909992218
1631534984100632305,397639,1631534984098099959,,67.796257019,21.0725784302,404.130004883,24.5020008087
1631534984223063144,397640,1631534984219721808,,67.796257019,21.0725784302,404.130004883,24.5090007782
1631534984350218867,397641,1631534984345372350,,67.796257019,21.0725784302,404.140014648,24.513999939
1631534984475247779,397642,1631534984472544425,,67.796257019,21.0725784302,404.140014648,24.5189990997
1631534984604720808,397643,1631534984600293043,,67.796257019,21.0725784302,404.149993896,24.5230007172
1631534984725022788,397644,1631534984719118483,,67.796257019,21.0725784302,404.149993896,24.5240001678
1631534984852720782,397645,1631534984845478432,,67.796257019,21.0725784302,404.149993896,24.5209999084
1631534984970543728,397646,1631534984968263157,,67.796257019,21.0725784302,404.140014648,24.5170001984
1631534985099268119,397647,1631534985095858335,,67.796257019,21.0725784302,404.140014648,24.5119991302
1631534985220822928,397648,1631534985218085398,,67.796257019,21.0725784302,404.130004883,24.5079994202
1631534985353778061,397649,1631534985345255586,,67.796257019,21.0725803375,404.130004883,24.5
1631534985475843876,397650,1631534985470113746,,67.796257019,21.0725803375,404.109985352,24.482000351
1631534985608920001,397651,1631534985600061911,,67.796257019,21.0725803375,404.089996338,24.4650001526
1631534985723988426,397652,1631534985720116435,,67.796257019,21.0725803375,404.079986572,24.452999115
1631534985853434127,397653,1631534985846433600,,67.796257019,21.0725803375,404.079986572,24.4510002136
1631534985970530835,397654,1631534985968222328,,67.796257019,21.0725803375,404.079986572,24.4510002136
1631534986104780333,397655,1631534986095359716,,67.796257019,21.0725803375,404.070007324,24.4459991455
1631534986221183154,397656,1631534986218932855,,67.796257019,21.0725803375,404.059997559,24.4349994659
1631534986352658579,397657,1631534986345272389,,67.796257019,21.0725803375,404.049987793,24.4249992371
1631534986478465185,397658,1631534986474938602,,67.796257019,21.0725784302,404.040008545,24.4190006256
1631534986603949584,397659,1631534986600888888,,67.796257019,21.0725784302,404.049987793,24.420999527
1631534986721903378,397660,1631534986719653815,,67.796257019,21.0725784302,404.059997559,24.4309997559
1631534986853843185,397661,1631534986845205606,,67.796257019,21.0725784302,404.070007324,24.4430007935
1631534986972433009,397662,1631534986968176412,,67.796257019,21.0725784302,404.079986572,24.4559993744
1631534987100767226,397663,1631534987096196005,,67.796257019,21.0725784302,404.100006104,24.4699993134
1631534987222758289,397664,1631534987218836251,,67.796257019,21.0725784302,404.109985352,24.4869995117
1631534987352187575,397665,1631534987345213544,,67.796257019,21.0725784302,404.130004883,24.5060005188
1631534987482254683,397666,1631534987475295660,,67.796257019,21.0725784302,404.140014648,24.5189990997
1631534987603757044,397667,1631534987600119485,,67.796257019,21.0725784302,404.149993896,24.5289993286
1631534987724422479,397668,1631534987718607453,,67.796257019,21.0725784302,404.160003662,24.5300006866
1631534987853627733,397669,1631534987845916200,,67.796257019,21.0725784302,404.149993896,24.5289993286
1631534987977216905,397670,1631534987968708766,,67.796257019,21.0725784302,404.149993896,24.5289993286
1631534988101387995,397671,1631534988095107627,,67.796257019,21.0725784302,404.140014648,24.5149993896
1631534988223208403,397672,1631534988218756254,,67.796257019,21.0725784302,404.119995117,24.4930000305
1631534988352726425,397673,1631534988347705061,,67.796257019,21.0725784302,404.089996338,24.4689998627
1631534988476237933,397674,1631534988473681267,,67.796257019,21.0725784302,404.079986572,24.4519996643
1631534988604160630,397675,1631534988598905731,,67.796257019,21.0725765228,404.059997559,24.438999176
1631534988721876696,397676,1631534988718709120,,67.796257019,21.0725765228,404.059997559,24.4319992065
1631534988851324638,397677,1631534988845225037,,67.796257019,21.0725765228,404.049987793,24.4279994965
1631534988971504826,397678,1631534988968953472,,67.796257019,21.0725765228,404.059997559,24.4309997559
1631534989104518839,397679,1631534989096525994,,67.796257019,21.0725765228,404.059997559,24.438999176
1631534989228779209,397680,1631534989226282479,,67.796257019,21.0725765228,404.079986572,24.4519996643
1631534989357180977,397681,1631534989348739558,,67.796257019,21.0725765228,404.089996338,24.466999054
1631534989473345335,397682,1631534989471175293,,67.796257019,21.0725765228,404.109985352,24.4829998016
1631534989604944760,397683,1631534989598248616,,67.796257019,21.0725765228,404.130004883,24.5009994507
1631534989727954605,397684,1631534989718811555,,67.796257019,21.0725765228,404.140014648,24.5170001984
1631534989848193897,397685,1631534989845069009,,67.796257019,21.0725765228,404.160003662,24.5300006866
1631534989972997850,397686,1631534989968363397,,67.796257019,21.0725765228,404.160003662,24.5380001068
1631534990106013687,397687,1631534990100436709,,67.796257019,21.0725765228,404.170013428,24.547000885
1631534990219272836,397688,1631534990218077895,,67.796257019,21.0725765228,404.179992676,24.5590000153
1631534990352123713,397689,1631534990345168754,,67.796257019,21.0725765228,404.190002441,24.5650005341
1631534990481386311,397690,1631534990477227218,,67.796257019,21.0725765228,404.190002441,24.561000824
1631534990606639223,397691,1631534990596032593,,67.796257019,21.0725765228,404.179992676,24.5499992371
1631534990724109882,397692,1631534990718544648,,67.796257019,21.0725765228,404.160003662,24.5310001373
1631534990852358083,397693,1631534990845730131,,67.796257019,21.0725784302,404.130004883,24.5079994202
1631534990971024386,397694,1631534990968513193,,67.796257019,21.0725784302,404.109985352,24.4850006104
1631534991104736958,397695,1631534991100901479,,67.796257019,21.0725784302,404.089996338,24.4650001526
1631534991223662621,397696,1631534991218551337,,67.796257019,21.0725784302,404.070007324,24.4470005035
1631534991354170016,397697,1631534991345335574,,67.796257019,21.0725784302,404.059997559,24.436000824
1631534991477781876,397698,1631534991473483230,,67.796257019,21.0725784302,404.059997559,24.4300003052
1631534991601741703,397699,1631534991597164754,,67.796257019,21.0725784302,404.059997559,24.4319992065
1631534991724293629,397700,1631534991720359175,,67.796257019,21.0725784302,404.070007324,24.4419994354
1631534991849902412,397701,1631534991845164824,,67.796257019,21.0725784302,404.089996338,24.4599990845
1631534991971910980,397702,1631534991968346797,,67.796257019,21.0725784302,404.109985352,24.4890003204
1631534992105634911,397703,1631534992097971634,,67.796257019,21.0725784302,404.149993896,24.5219993591
1631534992225113853,397704,1631534992218660589,,67.796257019,21.0725784302,404.179992676,24.5559997559
1631534992350339661,397705,1631534992345247418,,67.796257019,21.0725803375,404.209991455,24.5890007019
1631534992472892420,397706,1631534992469490028,,67.796257019,21.0725803375,404.239990234,24.6189994812
1631534992600124719,397707,1631534992596235736,,67.796257019,21.0725803375,404.269989014,24.6480007172
1631534992723735107,397708,1631534992718755247,,67.796257019,21.0725822449,404.290008545,24.6690006256
1631534992849805489,397709,1631534992846448985,,67.796257019,21.0725822449,404.309997559,24.6840000153
1631534992974572162,397710,1631534992968288273,,67.796257019,21.0725841522,404.309997559,24.6849994659
1631534993104868805,397711,1631534993097855126,,67.796257019,21.0725841522,404.299987793,24.6700000763
1631534993221903401,397712,1631534993218635121,,67.796257019,21.0725841522,404.269989014,24.6469993591
1631534993348663637,397713,1631534993345147934,,67.796257019,21.0725841522,404.239990234,24.6180000305
1631534993476729342,397714,1631534993470475214,,67.796257019,21.0725841522,404.209991455,24.5879993439
1631534993606073252,397715,1631534993600130899,,67.7962646484,21.0725841522,404.190002441,24.5680007935
1631534993723681159,397716,1631534993719309105,,67.7962646484,21.0725841522,404.190002441,24.5650005341
1631534993852534702,397717,1631534993845084064,,67.7962646484,21.0725841522,404.200012207,24.579000473
1631534993973592776,397718,1631534993968407829,,67.7962646484,21.0725841522,404.230010986,24.6060009003
1631534994100698003,397719,1631534994095455680,,67.7962646484,21.0725841522,404.279998779,24.6499996185
1631534994221090479,397720,1631534994218507061,,67.7962646484,21.0725841522,404.329986572,24.7089996338
1631534994354457515,397721,1631534994345258050,,67.7962722778,21.0725841522,404.410003662,24.7849998474
1631534994478641118,397722,1631534994473712554,,67.7962722778,21.0725841522,404.489990234,24.8689994812
1631534994605282218,397723,1631534994600219287,,67.7962722778,21.0725841522,404.579986572,24.9580001831
1631534994722217231,397724,1631534994718576951,,67.7962722778,21.0725860596,404.670013428,25.0480003357
1631534994855044620,397725,1631534994845728227,,67.7962722778,21.0725860596,404.779998779,25.1509990692
1631534994972290831,397726,1631534994968269145,,67.7962722778,21.0725860596,404.890014648,25.263999939
1631534995098402813,397727,1631534995095472548,,67.7962722778,21.0725879669,405.010009766,25.3880004883
1631534995218778969,397728,1631534995218110651,,67.7962799072,21.0725879669,405.140014648,25.5160007477
1631534995350589657,397729,1631534995345048999,,67.7962799072,21.0725879669,405.279998779,25.6499996185
1631534995478146979,397730,1631534995474278669,,67.7962875366,21.0725898743,405.420013428,25.7919998169
1631534995604723120,397731,1631534995600378107,,67.7962875366,21.0725917816,405.570007324,25.9440002441
1631534995722666002,397732,1631534995718649692,,67.796295166,21.0725917816,405.720001221,26.0960006714
1631534995855954830,397733,1631534995846099814,,67.796295166,21.072593689,405.890014648,26.267999649
1631534995971800053,397734,1631534995968266046,,67.7963027954,21.0725955963,406.079986572,26.4570007324
1631534996104887378,397735,1631534996096025575,,67.7963027954,21.0725955963,406.290008545,26.6620006561
1631534996224877199,397736,1631534996218803421,,67.7963104248,21.0725975037,406.5,26.8740005493
1631534996348866594,397737,1631534996345166027,,67.7963104248,21.0725975037,406.720001221,27.0939998627
1631534996479306181,397738,1631534996475792302,,67.7963104248,21.072599411,406.950012207,27.3269996643
1631534996605952978,397739,1631534996600307487,,67.7963180542,21.0726013184,407.209991455,27.5799999237
1631534996723958163,397740,1631534996718504352,,67.7963256836,21.0726013184,407.440002441,27.8129997253
1631534996849745314,397741,1631534996845123213,,67.7963256836,21.0726032257,407.660003662,28.0389995575
1631534996970825628,397742,1631534996968713377,,67.796333313,21.0726051331,407.869995117,28.2460002899
1631534997106857138,397743,1631534997101736958,,67.7963409424,21.0726070404,408.079986572,28.4519996643
1631534997228463370,397744,1631534997219013025,,67.7963409424,21.0726089478,408.290008545,28.6679992676
1631534997353564699,397745,1631534997345799214,,67.7963485718,21.0726089478,408.519989014,28.8899993896
1631534997474368374,397746,1631534997471799900,,67.7963485718,21.0726108551,408.739990234,29.1159992218
1631534997602150911,397747,1631534997598411080,,67.7963485718,21.0726108551,408.980010986,29.3579998016
1631534997722205788,397748,1631534997718421637,,67.7963562012,21.0726127625,409.230010986,29.6009998322
1631534997856187895,397749,1631534997845332785,,67.7963638306,21.0726146698,409.480010986,29.8509998322
1631534997973197819,397750,1631534997968622950,,67.7963638306,21.0726165771,409.720001221,30.0979995728
1631534998099441416,397751,1631534998095300722,,67.79637146,21.0726184845,409.970001221,30.3490009308
1631534998224050490,397752,1631534998218705927,,67.7963790894,21.0726184845,410.220001221,30.5990009308
1631534998351356709,397753,1631534998345918386,,67.7963867188,21.0726203918,410.470001221,30.8449993134
1631534998478212369,397754,1631534998473690492,,67.7963867188,21.0726203918,410.720001221,31.093000412
1631534998602406980,397755,1631534998598199566,,67.7963867188,21.0726222992,410.970001221,31.3439998627
1631534998724389691,397756,1631534998719248584,,67.7963943481,21.0726242065,411.200012207,31.577999115
1631534998849619563,397757,1631534998845157494,,67.7964019775,21.0726280212,411.440002441,31.8129997253
1631534998976268920,397758,1631534998968617611,,67.7964019775,21.0726280212,411.679992676,32.0530014038
1631534999101091209,397759,1631534999095825718,,67.7964096069,21.0726299286,411.920013428,32.2960014343
1631534999225410907,397760,1631534999219894345,,67.7964172363,21.0726318359,412.170013428,32.5410003662
1631534999352469223,397761,1631534999345090809,,67.7964248657,21.0726337433,412.410003662,32.7890014648
1631534999478376181,397762,1631534999473569121,,67.7964248657,21.0726356506,412.660003662,33.0349998474
1631534999599752591,397763,1631534999595749273,,67.7964324951,21.072637558,412.910003662,33.2840003967
1631534999721009865,397764,1631534999718486607,,67.7964324951,21.072637558,413.160003662,33.5320014954
1631534999851809643,397765,1631534999845328059,,67.7964401245,21.0726394653,413.399993896,33.7770004272
1631534999974404546,397766,1631534999968362448,,67.7964401245,21.0726413727,413.640014648,34.0149993896
1631535000112348371,397767,1631535000100127440,,67.7964477539,21.07264328,413.880004883,34.2509994507
1631535000218668497,397768,1631535000217910003,,67.7964553833,21.0726451874,414.089996338,34.46900177
1631535000351986957,397769,1631535000345609469,,67.7964630127,21.0726470947,414.329986572,34.702999115
1631535000478379546,397770,1631535000475447681,,67.7964630127,21.0726470947,414.570007324,34.9490013123
1631535000603453675,397771,1631535000595857469,,67.7964706421,21.0726490021,414.829986572,35.2000007629
1631535000721294317,397772,1631535000718562707,,67.7964706421,21.0726509094,415.079986572,35.4560012817
1631535000853139629,397773,1631535000845171712,,67.7964782715,21.0726528168,415.339996338,35.7099990845
1631535000980261176,397774,1631535000968280053,,67.7964782715,21.0726547241,415.589996338,35.9659996033
1631535001104183596,397775,1631535001099934582,,67.7964859009,21.0726566315,415.859985352,36.233001709
1631535001221104144,397776,1631535001218610998,,67.7964935303,21.0726585388,416.100006104,36.4770011902
1631535001350005271,397777,1631535001344938147,,67.7965011597,21.0726585388,416.350006104,36.7260017395
1631535001473698315,397778,1631535001469521333,,67.7965087891,21.0726604462,416.600006104,36.9720001221
1631535001602859793,397779,1631535001595804387,,67.7965087891,21.0726623535,416.839996338,37.2140007019
1631535001733954963,397780,1631535001728320289,,67.7965087891,21.0726642609,417.079986572,37.4580001831
1631535001851262103,397781,1631535001846738882,,67.7965164185,21.0726661682,417.329986572,37.7050018311
1631535001972613264,397782,1631535001968219675,,67.7965240479,21.0726680756,417.579986572,37.9570007324
1631535002106579851,397783,1631535002100473018,,67.7965316772,21.0726680756,417.850006104,38.2229995728
1631535002222458226,397784,1631535002218428924,,67.7965316772,21.0726699829,418.089996338,38.466999054
1631535002352811477,397785,1631535002345304520,,67.7965393066,21.0726718903,418.350006104,38.7210006714
1631535002475402508,397786,1631535002473494449,,67.796546936,21.0726737976,418.600006104,38.9720001221
1631535002600238717,397787,1631535002595919879,,67.796546936,21.072675705,418.839996338,39.2130012512
1631535002724562767,397788,1631535002719086685,,67.796546936,21.0726776123,419.070007324,39.4490013123
1631535002858892041,397789,1631535002845107563,,67.7965545654,21.0726776123,419.309997559,39.6800003052
1631535002972327894,397790,1631535002968361760,,67.7965621948,21.0726776123,419.540008545,39.9169998169
1631535003103992215,397791,1631535003097750758,,67.7965698242,21.0726795197,419.799987793,40.172000885
1631535003221881273,397792,1631535003219161727,,67.7965698242,21.072681427,420.059997559,40.4329986572
1631535003348485157,397793,1631535003344985422,,67.7965774536,21.0726852417,420.329986572,40.7060012817
1631535003472807640,397794,1631535003469564224,,67.796585083,21.072687149,420.600006104,40.9780006409
1631535003602408573,397795,1631535003595786509,,67.796585083,21.072687149,420.869995117,41.2470016479
1631535003728500811,397796,1631535003719033090,,67.7965927124,21.0726890564,421.130004883,41.5050010681
1631535003850085252,397797,1631535003845071600,,67.7965927124,21.0726928711,421.380004883,41.7569999695
1631535003970940671,397798,1631535003968259013,,67.7966003418,21.0726947784,421.619995117,41.9980010986
1631535004102310048,397799,1631535004097825483,,67.7966079712,21.0726966858,421.859985352,42.2379989624
1631535004222167645,397800,1631535004218508838,,67.7966156006,21.0726966858,422.089996338,42.4630012512
1631535004354405180,397801,1631535004345712370,,67.7966156006,21.0726985931,422.309997559,42.688999176
1631535004473674843,397802,1631535004470685570,,67.79662323,21.0727005005,422.540008545,42.9140014648
1631535004601459525,397803,1631535004596038834,,67.7966308594,21.0727024078,422.769989014,43.1440010071
1631535004722427487,397804,1631535004718798824,,67.7966308594,21.0727043152,423.010009766,43.3849983215
1631535004850226985,397805,1631535004845057750,,67.7966384888,21.0727062225,423.25,43.6220016479
1631535004970785061,397806,1631535004968287403,,67.7966384888,21.0727081299,423.470001221,43.8479995728
1631535005107676281,397807,1631535005100005547,,67.7966461182,21.0727081299,423.709991455,44.0870018005
1631535005220860006,397808,1631535005217894413,,67.7966537476,21.0727100372,423.950012207,44.3260002136
1631535005350559563,397809,1631535005346072918,,67.796661377,21.0727119446,424.209991455,44.5849990845
1631535005479777170,397810,1631535005475068861,,67.796661377,21.0727138519,424.470001221,44.8470001221
1631535005601873034,397811,1631535005596330903,,67.7966690063,21.0727157593,424.730010986,45.0999984741
1631535005722775908,397812,1631535005719924843,,67.7966690063,21.0727176666,424.989990234,45.361000061
1631535005851388364,397813,1631535005845028316,,67.7966766357,21.0727176666,425.260009766,45.6310005188
1631535005972137159,397814,1631535005968262737,,67.7966766357,21.0727214813,425.529998779,45.9010009766
1631535006105496580,397815,1631535006098047606,,67.7966842651,21.0727233887,425.809997559,46.1809997559
1631535006220666316,397816,1631535006218487986,,67.7966918945,21.072725296,426.070007324,46.4469985962
1631535006349687539,397817,1631535006345707837,,67.7966995239,21.0727272034,426.339996338,46.7150001526
1631535006474931523,397818,1631535006472507369,,67.7967071533,21.0727272034,426.619995117,46.9900016785
1631535006609162110,397819,1631535006597672186,,67.7967071533,21.0727291107,426.890014648,47.266998291
1631535006724468582,397820,1631535006718342453,,67.7967071533,21.0727310181,427.170013428,47.5410003662
1631535006852296944,397821,1631535006848530457,,67.7967147827,21.0727329254,427.429992676,47.8059997559
1631535006970879408,397822,1631535006968218775,,67.7967224121,21.0727348328,427.679992676,48.0519981384
1631535007104235469,397823,1631535007097943068,,67.7967224121,21.0727367401,427.920013428,48.2929992676
1631535007222709645,397824,1631535007219175382,,67.7967300415,21.0727367401,428.140014648,48.5190010071
1631535007348082429,397825,1631535007344962117,,67.7967376709,21.0727386475,428.369995117,48.7420005798
1631535007473199214,397826,1631535007470640340,,67.7967453003,21.0727405548,428.579986572,48.9589996338
1631535007600470105,397827,1631535007596041860,,67.7967453003,21.0727424622,428.809997559,49.1809997559
1631535007721494867,397828,1631535007719252217,,67.7967453003,21.0727443695,429.049987793,49.4210014343
1631535007848972830,397829,1631535007845057799,,67.7967529297,21.0727443695,429.299987793,49.672000885
1631535007973817455,397830,1631535007968618204,,67.7967605591,21.0727462769,429.570007324,49.9459991455
1631535008103063030,397831,1631535008095363688,,67.7967681885,21.0727462769,429.839996338,50.216999054
1631535008223822577,397832,1631535008218461758,,67.7967681885,21.0727481842,430.109985352,50.483001709
1631535008354747379,397833,1631535008345144298,,67.7967758179,21.0727500916,430.369995117,50.7439994812
1631535008477641833,397834,1631535008472854804,,67.7967834473,21.0727519989,430.630004883,51.0060005188
1631535008603470264,397835,1631535008598147652,,67.7967834473,21.0727539062,430.890014648,51.2659988403
1631535008723121077,397836,1631535008718635008,,67.7967834473,21.0727558136,431.140014648,51.516998291
1631535008852895130,397837,1631535008845021358,,67.7967910767,21.0727577209,431.390014648,51.7690010071
1631535008980471365,397838,1631535008970828284,,67.7967987061,21.0727577209,431.640014648,52.0130004883
1631535009103927162,397839,1631535009095494574,,67.7968063354,21.0727577209,431.869995117,52.2420005798
1631535009222326810,397840,1631535009218482788,,67.7968139648,21.0727596283,432.100006104,52.4720001221
1631535009356274677,397841,1631535009344922001,,67.7968139648,21.0727615356,432.329986572,52.7039985657
1631535009480179241,397842,1631535009472678747,,67.7968215942,21.072763443,432.559997559,52.938999176
1631535009603035167,397843,1631535009598178219,,67.7968292236,21.0727653503,432.809997559,53.1809997559
1631535009722490525,397844,1631535009719872675,,67.7968292236,21.0727653503,433.040008545,53.4169998169
1631535009850155239,397845,1631535009844829396,,67.7968292236,21.0727672577,433.290008545,53.6619987488
1631535009970848195,397846,1631535009968216361,,67.796836853,21.0727672577,433.540008545,53.9150009155
1631535010104136447,397847,1631535010096082963,,67.7968444824,21.072769165,433.799987793,54.1699981689
1631535010218618026,397848,1631535010217799724,,67.7968521118,21.0727710724,434.059997559,54.4300003052
1631535010350360234,397849,1631535010345005975,,67.7968521118,21.0727729797,434.320007324,54.6899986267
1631535010476582136,397850,1631535010473588031,,67.7968597412,21.0727748871,434.579986572,54.9539985657
1631535010608824343,397851,1631535010597302003,,67.7968673706,21.0727767944,434.820007324,55.1990013123
1631535010728237333,397852,1631535010718620077,,67.7968673706,21.0727787018,435.070007324,55.4399986267
1631535010851355371,397853,1631535010845713305,,67.796875,21.0727806091,435.309997559,55.6809997559
1631535010970373290,397854,1631535010968244463,,67.796875,21.0727825165,435.549987793,55.9290008545
1631535011104010214,397855,1631535011099962320,,67.7968826294,21.0727844238,435.809997559,56.188999176
1631535011222040488,397856,1631535011218493712,,67.7968902588,21.0727863312,436.049987793,56.4280014038
1631535011353135402,397857,1631535011345016125,,67.7968978882,21.0727863312,436.309997559,56.6829986572
1631535011475918560,397858,1631535011473586470,,67.7968978882,21.0727882385,436.570007324,56.9399986267
1631535011600701649,397859,1631535011596499835,,67.7969055176,21.0727901459,436.809997559,57.1809997559
1631535011731494100,397860,1631535011720877838,,67.7969055176,21.0727920532,437.040008545,57.4189987183
1631535011851821040,397861,1631535011846062942,,67.796913147,21.0727939606,437.279998779,57.6500015259
1631535011976869569,397862,1631535011968154998,,67.7969207764,21.0727958679,437.5,57.8779983521
1631535012107860419,397863,1631535012103712013,,67.7969207764,21.0727977753,437.75,58.1269989014
1631535012224526952,397864,1631535012219691796,,67.7969284058,21.0727996826,437.989990234,58.3670005798
1631535012353945486,397865,1631535012346798144,,67.7969360352,21.07280159,438.25,58.6279983521
1631535012480591259,397866,1631535012473170285,,67.7969436646,21.0728034973,438.519989014,58.8959999084
1631535012607913510,397867,1631535012601624342,,67.7969436646,21.0728054047,438.790008545,59.1609992981
1631535012721237364,397868,1631535012718427546,,67.7969436646,21.072807312,439.049987793,59.4239997864
1631535012848112896,397869,1631535012844996263,,67.7969512939,21.072807312,439.299987793,59.6749992371
1631535012971218357,397870,1631535012968245788,,67.7969589233,21.0728092194,439.549987793,59.9210014343
1631535013100877179,397871,1631535013097528867,,67.7969589233,21.0728111267,439.799987793,60.1739997864
1631535013228318406,397872,1631535013218658429,,67.7969665527,21.0728130341,440.049987793,60.4210014343
1631535013350737693,397873,1631535013344952651,,67.7969741821,21.0728149414,440.299987793,60.6769981384
1631535013474343729,397874,1631535013472314742,,67.7969818115,21.0728168488,440.559997559,60.9350013733
1631535013602545338,397875,1631535013596894344,,67.7969818115,21.0728187561,440.820007324,61.1899986267
1631535013720972027,397876,1631535013718381985,,67.7969818115,21.0728206635,441.070007324,61.4459991455
1631535013852540252,397877,1631535013844997262,,67.7969894409,21.0728225708,441.320007324,61.6980018616
1631535013971062076,397878,1631535013968178147,,67.7969970703,21.0728244781,441.570007324,61.9469985962
1631535014102219166,397879,1631535014097717833,,67.7970046997,21.0728263855,441.809997559,62.1870002747
1631535014223018169,397880,1631535014219979073,,67.7970123291,21.0728263855,442.040008545,62.4189987183
1631535014352814271,397881,1631535014345125201,,67.7970123291,21.0728282928,442.279998779,62.6520004272
1631535014476853426,397882,1631535014472593628,,67.7970199585,21.0728302002,442.510009766,62.8849983215
1631535014601369572,397883,1631535014595905073,,67.7970275879,21.0728321075,442.739990234,63.1150016785
1631535014722498270,397884,1631535014718437256,,67.7970275879,21.0728340149,442.980010986,63.3540000916
1631535014849521290,397885,1631535014844899925,,67.7970275879,21.0728359222,443.220001221,63.5960006714
1631535014972346080,397886,1631535014968478826,,67.7970352173,21.0728359222,443.480010986,63.8510017395
1631535015107919991,397887,1631535015098320399,,67.7970428467,21.0728378296,443.75,64.1220016479
1631535015220096519,397888,1631535015218177932,,67.7970504761,21.0728397369,444.010009766,64.3840026855
1631535015353034597,397889,1631535015345471383,,67.7970581055,21.0728416443,444.279998779,64.6529998779
1631535015474182623,397890,1631535015469626890,,67.7970581055,21.072845459,444.549987793,64.9250030518
1631535015601941097,397891,1631535015596154135,,67.7970657349,21.072845459,444.820007324,65.1949996948
1631535015723850978,397892,1631535015718319663,,67.7970657349,21.0728473663,445.089996338,65.4609985352
1631535015853418888,397893,1631535015844888220,,67.7970733643,21.0728473663,445.339996338,65.7180023193
1631535015972989254,397894,1631535015968094833,,67.7970733643,21.0728492737,445.600006104,65.9749984741
1631535016104341351,397895,1631535016098133398,,67.7970809937,21.072851181,445.859985352,66.2350006104
1631535016224552516,397896,1631535016218302515,,67.797088623,21.0728530884,446.109985352,66.4820022583
1631535016355729254,397897,1631535016344911424,,67.7970962524,21.0728549957,446.359985352,66.7320022583
1631535016473625736,397898,1631535016470465615,,67.7971038818,21.0728569031,446.609985352,66.983001709
1631535016599806294,397899,1631535016595603552,,67.7971038818,21.0728569031,446.859985352,67.2310028076
1631535016722313421,397900,1631535016718193591,,67.7971038818,21.0728588104,447.100006104,67.4710006714
1631535016855381258,397901,1631535016849370361,,67.7971115112,21.0728607178,447.339996338,67.7099990845
1631535016972316526,397902,1631535016968320888,,67.7971191406,21.0728626251,447.579986572,67.9509963989
1631535017102852178,397903,1631535017098376573,,67.7971191406,21.0728645325,447.820007324,68.1979980469
1631535017221754898,397904,1631535017218260058,,67.79712677,21.0728664398,448.070007324,68.4400024414
1631535017357846568,397905,1631535017350589625,,67.7971343994,21.0728664398,448.320007324,68.6900024414
1631535017475014859,397906,1631535017473263600,,67.7971420288,21.0728683472,448.559997559,68.9390029907
1631535017606525453,397907,1631535017595359560,,67.7971420288,21.0728702545,448.809997559,69.1859970093
1631535017720768184,397908,1631535017718247230,,67.7971420288,21.0728721619,449.049987793,69.4290008545
1631535017857426700,397909,1631535017845068426,,67.7971496582,21.0728740692,449.299987793,69.6740036011
1631535017971030137,397910,1631535017968434079,,67.7971572876,21.0728759766,449.540008545,69.9189987183
1631535018103074393,397911,1631535018097753318,,67.797164917,21.0728759766,449.799987793,70.1719970703
1631535018221031067,397912,1631535018218320993,,67.797164917,21.0728797913,450.049987793,70.422996521
1631535018353690713,397913,1631535018344881742,,67.7971725464,21.0728816986,450.309997559,70.6819992065
1631535018481074564,397914,1631535018472145114,,67.7971801758,21.072883606,450.570007324,70.9440002441
1631535018607156594,397915,1631535018599962116,,67.7971878052,21.0728855133,450.829986572,71.2060012817
1631535018721159774,397916,1631535018718634788,,67.7971878052,21.0728855133,451.079986572,71.452003479
1631535018854544315,397917,1631535018845362897,,67.7971878052,21.0728874207,451.339996338,71.7170028687
1631535018973261819,397918,1631535018968993029,,67.7971954346,21.072889328,451.619995117,71.9899978638
1631535019100013127,397919,1631535019095164723,,67.797203064,21.072889328,451.880004883,72.2529983521
1631535019221631297,397920,1631535019219196167,,67.797203064,21.0728931427,452.130004883,72.5009994507
1631535019348832364,397921,1631535019344741974,,67.7972106934,21.0728931427,452.369995117,72.7470016479
1631535019472480672,397922,1631535019470650053,,67.7972183228,21.07289505,452.619995117,72.9919967651
1631535019600725386,397923,1631535019597558257,,67.7972259521,21.07289505,452.850006104,73.2279968262
1631535019722332195,397924,1631535019718286828,,67.7972259521,21.0728969574,453.079986572,73.4580001831
1631535019855473536,397925,1631535019848929200,,67.7972259521,21.0728988647,453.320007324,73.6959991455
1631535019970201226,397926,1631535019968177583,,67.7972335815,21.0729007721,453.559997559,73.9329986572
1631535020101829739,397927,1631535020094717116,,67.7972412109,21.0729026794,453.790008545,74.1600036621
1631535020218982383,397928,1631535020218115569,,67.7972488403,21.0729045868,454.0,74.3759994507
1631535020352592939,397929,1631535020348428725,,67.7972564697,21.0729064941,454.209991455,74.5839996338
1631535020477073853,397930,1631535020473565029,,67.7972564697,21.0729064941,454.429992676,74.8030014038
1631535020598841142,397931,1631535020595389406,,67.7972640991,21.0729084015,454.660003662,75.0350036621
1631535020721616716,397932,1631535020719244146,,67.7972640991,21.0729103088,454.910003662,75.2860031128
1631535020848688664,397933,1631535020844921313,,67.7972717285,21.0729122162,455.179992676,75.5540008545
1631535020970714800,397934,1631535020968194198,,67.7972793579,21.0729141235,455.450012207,75.827003479
1631535021104535404,397935,1631535021098738298,,67.7972793579,21.0729160309,455.730010986,76.1070022583
1631535021224486249,397936,1631535021218423544,,67.7972869873,21.0729179382,456.0,76.3740005493
1631535021356276713,397937,1631535021344997925,,67.7972946167,21.0729198456,456.260009766,76.6360015869
1631535021476721381,397938,1631535021473228462,,67.7973022461,21.0729217529,456.519989014,76.8970031738
1631535021601878422,397939,1631535021595630917,,67.7973022461,21.0729236603,456.779998779,77.15599823
1631535021723042960,397940,1631535021718333180,,67.7973022461,21.0729255676,457.040008545,77.4120025635
1631535021851827096,397941,1631535021845098760,,67.7973098755,21.0729255676,457.290008545,77.6620025635
1631535021972462292,397942,1631535021968202558,,67.7973175049,21.072927475,457.540008545,77.9140014648
1631535022102148473,397943,1631535022097937155,,67.7973175049,21.0729293823,457.790008545,78.1660003662
1631535022222997300,397944,1631535022218262624,,67.7973251343,21.0729312897,458.029998779,78.4079971313
1631535022354232950,397945,1631535022345039340,,67.7973327637,21.072933197,458.279998779,78.6569976807
1631535022478116746,397946,1631535022468893728,,67.7973403931,21.0729351044,458.540008545,78.9110031128
1631535022602879163,397947,1631535022595335182,,67.7973403931,21.0729351044,458.799987793,79.1719970703
1631535022721106429,397948,1631535022718258212,,67.7973403931,21.0729370117,459.059997559,79.4359970093
1631535022849808581,397949,1631535022844982609,,67.7973480225,21.0729370117,459.329986572,79.7030029297
1631535022970412193,397950,1631535022968093222,,67.7973556519,21.0729389191,459.589996338,79.9619979858
1631535023101376963,397951,1631535023098655434,,67.7973632812,21.0729408264,459.850006104,80.2210006714
1631535023222169214,397952,1631535023219348229,,67.7973632812,21.0729427338,460.089996338,80.4670028687
1631535023351091686,397953,1631535023344985749,,67.7973709106,21.0729446411,460.350006104,80.7200012207
1631535023472042753,397954,1631535023469027432,,67.79737854,21.0729465485,460.600006104,80.9789962769
1631535023601911622,397955,1631535023596265971,,67.7973861694,21.0729465485,460.859985352,81.233001709
1631535023721787939,397956,1631535023718304876,,67.7973861694,21.0729484558,461.109985352,81.4869995117
1631535023851874728,397957,1631535023848758511,,67.7973861694,21.0729503632,461.359985352,81.7369995117
1631535023971123079,397958,1631535023968355150,,67.7973937988,21.0729522705,461.609985352,81.986000061
1631535024101389867,397959,1631535024098028435,,67.7974014282,21.0729541779,461.869995117,82.2409973145
1631535024220480426,397960,1631535024218134288,,67.7974090576,21.0729560852,462.109985352,82.4889984131
1631535024349627377,397961,1631535024345268444,,67.7974090576,21.0729560852,462.359985352,82.7379989624
1631535024476919517,397962,1631535024469929486,,67.797416687,21.0729579926,462.609985352,82.9889984131
1631535024597192377,397963,1631535024595102142,,67.7974243164,21.0729598999,462.869995117,83.2409973145
1631535024723103208,397964,1631535024718533075,,67.7974243164,21.0729618073,463.119995117,83.4919967651
1631535024852361871,397965,1631535024844994849,,67.7974243164,21.0729637146,463.369995117,83.7399978638
1631535024971305007,397966,1631535024968001847,,67.7974319458,21.0729656219,463.609985352,83.9850006104
1631535025104406924,397967,1631535025097546429,,67.7974395752,21.0729656219,463.859985352,84.2369995117
1631535025224345673,397968,1631535025219063766,,67.7974472046,21.0729675293,464.100006104,84.4729995728
1631535025356299209,397969,1631535025345688483,,67.797454834,21.0729694366,464.339996338,84.7129974365
1631535025474837226,397970,1631535025472162225,,67.797454834,21.072971344,464.579986572,84.9580001831
1631535025601099192,397971,1631535025595898501,,67.7974624634,21.072971344,464.820007324,85.1940002441
1631535025720566263,397972,1631535025718188668,,67.7974624634,21.0729732513,465.059997559,85.4390029907
1631535025849214591,397973,1631535025846394118,,67.7974700928,21.0729751587,465.309997559,85.6839981079
1631535025970387641,397974,1631535025968220862,,67.7974700928,21.0729751587,465.549987793,85.9270019531
1631535026100790269,397975,1631535026095174539,,67.7974777222,21.072977066,465.799987793,86.1719970703
1631535026221540024,397976,1631535026218165889,,67.7974853516,21.0729789734,466.040008545,86.4169998169
1631535026357200368,397977,1631535026346719785,,67.797492981,21.0729808807,466.290008545,86.6679992676
1631535026474846770,397978,1631535026468732001,,67.7975006104,21.0729827881,466.540008545,86.9169998169
1631535026604286521,397979,1631535026599784324,,67.7975006104,21.0729846954,466.799987793,87.1740036011
1631535026724990676,397980,1631535026718222757,,67.7975006104,21.0729846954,467.040008545,87.4150009155
1631535026849146951,397981,1631535026844738578,,67.7975082397,21.0729866028,467.290008545,87.6660003662
1631535026972905595,397982,1631535026968339686,,67.7975158691,21.0729885101,467.540008545,87.9189987183
1631535027101264356,397983,1631535027096986767,,67.7975158691,21.0729904175,467.799987793,88.1750030518
1631535027225174008,397984,1631535027218309097,,67.7975234985,21.0729923248,468.059997559,88.4329986572
1631535027356603449,397985,1631535027345541716,,67.7975311279,21.0729942322,468.320007324,88.6920013428
1631535027476060632,397986,1631535027468873673,,67.7975387573,21.0729961395,468.570007324,88.9430007935
1631535027602494598,397987,1631535027598542735,,67.7975387573,21.0729961395,468.829986572,89.1999969482
1631535027720343752,397988,1631535027718123757,,67.7975387573,21.0729980469,469.070007324,89.4479980469
1631535027858971160,397989,1631535027844722139,,67.7975463867,21.0729999542,469.320007324,89.6940002441
1631535027972738660,397990,1631535027967988208,,67.7975540161,21.0730018616,469.559997559,89.9339981079
1631535028105441859,397991,1631535028095112668,,67.7975616455,21.0730037689,469.799987793,90.1719970703
1631535028222912070,397992,1631535028218439697,,67.7975616455,21.0730056763,470.040008545,90.4179992676
1631535028348116727,397993,1631535028344950590,,67.7975692749,21.0730075836,470.290008545,90.6679992676
1631535028474284261,397994,1631535028470071951,,67.7975769043,21.073009491,470.540008545,90.9179992676
1631535028601926064,397995,1631535028599050806,,67.7975845337,21.0730113983,470.799987793,91.172996521
1631535028720439344,397996,1631535028718089654,,67.7975845337,21.0730133057,471.040008545,91.4169998169
1631535028850208438,397997,1631535028845530753,,67.7975845337,21.073015213,471.299987793,91.672996521
1631535028970384467,397998,1631535028968018968,,67.7975921631,21.073015213,471.559997559,91.93699646
1631535029104203886,397999,1631535029095132836,,67.7975997925,21.0730171204,471.829986572,92.2040023804
1631535029221066291,398000,1631535029218400410,,67.7976074219,21.0730190277,472.089996338,92.4649963379
1631535029352580084,398001,1631535029344692712,,67.7976074219,21.0730209351,472.350006104,92.7249984741
1631535029478672867,398002,1631535029473952494,,67.7976150513,21.0730209351,472.609985352,92.9850006104
1631535029604287346,398003,1631535029598186849,,67.7976226807,21.0730228424,472.869995117,93.2490005493
1631535029724578767,398004,1631535029718701405,,67.7976226807,21.0730247498,473.130004883,93.5
1631535029849251937,398005,1631535029845089803,,67.7976303101,21.0730247498,473.380004883,93.7509994507
1631535029970598139,398006,1631535029968459520,,67.7976303101,21.0730266571,473.619995117,93.9940032959
1631535030101426046,398007,1631535030095079821,,67.7976379395,21.0730285645,473.850006104,94.2259979248
1631535030223424726,398008,1631535030218186723,,67.7976455688,21.0730304718,474.079986572,94.452003479
1631535030354803032,398009,1631535030345635310,,67.7976531982,21.0730323792,474.309997559,94.6829986572
1631535030476442385,398010,1631535030473673528,,67.7976531982,21.0730342865,474.549987793,94.9219970703
1631535030604342171,398011,1631535030598449801,,67.7976608276,21.0730342865,474.779998779,95.1539993286
1631535030724313784,398012,1631535030718249543,,67.7976608276,21.0730361938,475.0,95.3789978027
1631535030848852907,398013,1631535030844871988,,67.797668457,21.0730400085,475.239990234,95.6190032959
1631535030975972727,398014,1631535030968985960,,67.797668457,21.0730419159,475.489990234,95.8679962158
1631535031104336352,398015,1631535031096275539,,67.7976760864,21.0730438232,475.75,96.1210021973
1631535031225059515,398016,1631535031218453611,,67.7976837158,21.0730457306,476.0,96.375
1631535031347416723,398017,1631535031344838937,,67.7976913452,21.0730457306,476.260009766,96.6309967041
1631535031477498935,398018,1631535031471853509,,67.7976989746,21.0730476379,476.519989014,96.8960037231
1631535031603199271,398019,1631535031598065971,,67.7976989746,21.0730495453,476.779998779,97.1569976807
1631535031721875271,398020,1631535031718249712,,67.7976989746,21.07305336,477.040008545,97.4150009155
1631535031855024741,398021,1631535031845109533,,67.797706604,21.0730552673,477.299987793,97.672996521
1631535031970349485,398022,1631535031967987795,,67.7977142334,21.0730552673,477.549987793,97.9280014038
1631535032103089772,398023,1631535032097554489,,67.7977142334,21.0730571747,477.799987793,98.1770019531
1631535032222565194,398024,1631535032218139797,,67.7977218628,21.073059082,478.040008545,98.4160003662
1631535032357654435,398025,1631535032349317687,,67.7977294922,21.0730609894,478.290008545,98.6689987183
1631535032477736352,398026,1631535032469917331,,67.7977371216,21.0730628967,478.549987793,98.9240036011
1631535032605507562,398027,1631535032595474691,,67.7977371216,21.0730648041,478.799987793,99.1790008545
1631535032722907214,398028,1631535032718510297,,67.7977371216,21.0730648041,479.049987793,99.4290008545
1631535032857649607,398029,1631535032845219462,,67.797744751,21.0730667114,479.299987793,99.6750030518
1631535032970900757,398030,1631535032968122748,,67.7977523804,21.0730686188,479.549987793,99.9199981689
1631535033099702269,398031,1631535033094980264,,67.7977523804,21.0730705261,479.790008545,100.164001465
1631535033220811704,398032,1631535033218209918,,67.7977600098,21.0730724335,480.029998779,100.407997131
1631535033356506127,398033,1631535033349942623,,67.7977676392,21.0730743408,480.269989014,100.644996643
1631535033480650658,398034,1631535033474235826,,67.7977752686,21.0730743408,480.5,100.877998352
1631535033608908779,398035,1631535033599829665,,67.7977752686,21.0730743408,480.730010986,101.105003357
1631535033723898293,398036,1631535033720211998,,67.7977828979,21.0730762482,480.929992676,101.306999207
1631535033849280741,398037,1631535033844661168,,67.7977828979,21.0730781555,481.140014648,101.511001587
1631535033969807425,398038,1631535033967962373,,67.7977828979,21.0730781555,481.329986572,101.707000732
1631535034107800883,398039,1631535034094902930,,67.7977905273,21.0730800629,481.519989014,101.892997742
1631535034221015904,398040,1631535034218161511,,67.7977905273,21.0730819702,481.690002441,102.069000244
1631535034350381511,398041,1631535034344929428,,67.7977981567,21.0730819702,481.859985352,102.230003357
1631535034480575980,398042,1631535034473689276,,67.7977981567,21.0730819702,482.0,102.376998901
1631535034604221696,398043,1631535034599683115,,67.7977981567,21.0730838776,482.140014648,102.518997192
1631535034725520858,398044,1631535034718263244,,67.7978057861,21.0730838776,482.269989014,102.63999939
1631535034846777140,398045,1631535034844313018,,67.7978057861,21.0730838776,482.380004883,102.750999451
1631535034971944741,398046,1631535034968250606,,67.7978057861,21.0730838776,482.470001221,102.845001221
1631535035098202131,398047,1631535035094954107,,67.7978134155,21.0730838776,482.559997559,102.930999756
1631535035220473643,398048,1631535035218182353,,67.7978134155,21.0730838776,482.630004883,103.005996704
1631535035353673320,398049,1631535035344947710,,67.7978134155,21.0730838776,482.700012207,103.070999146
1631535035485596681,398050,1631535035473802277,,67.7978134155,21.0730838776,482.75,103.124000549
1631535035604802536,398051,1631535035600089267,,67.7978134155,21.0730838776,482.790008545,103.167999268
1631535035723769672,398052,1631535035720005297,,67.7978210449,21.0730838776,482.829986572,103.202003479
1631535035849769783,398053,1631535035844797251,,67.7978210449,21.0730838776,482.859985352,103.23400116
1631535035970528754,398054,1631535035967999640,,67.7978210449,21.0730838776,482.880004883,103.254997253
1631535036102958481,398055,1631535036097539390,,67.7978210449,21.0730838776,482.890014648,103.26499939
1631535036231743961,398056,1631535036221166899,,67.7978210449,21.0730838776,482.890014648,103.262001038
1631535036354617712,398057,1631535036348923069,,67.7978210449,21.0730838776,482.869995117,103.240997314
1631535036477368166,398058,1631535036472251155,,67.7978210449,21.0730838776,482.829986572,103.207000732
1631535036609228455,398059,1631535036599919069,,67.7978210449,21.0730838776,482.799987793,103.174003601
1631535036722823828,398060,1631535036718002879,,67.7978210449,21.0730838776,482.779998779,103.151000977
1631535036848779459,398061,1631535036844641773,,67.7978210449,21.0730838776,482.760009766,103.137001038
1631535036974179539,398062,1631535036970898331,,67.7978210449,21.0730838776,482.760009766,103.133003235
1631535037097853703,398063,1631535037095015086,,67.7978210449,21.0730838776,482.760009766,103.135002136
1631535037223768438,398064,1631535037220763582,,67.7978210449,21.0730838776,482.760009766,103.138999939
1631535037356265269,398065,1631535037349999972,,67.7978210449,21.0730838776,482.769989014,103.146003723
1631535037477445040,398066,1631535037476174867,,67.7978210449,21.0730838776,482.779998779,103.152000427
1631535037603942397,398067,1631535037598106732,,67.7978210449,21.0730838776,482.779998779,103.158996582
1631535037721947424,398068,1631535037718096617,,67.7978210449,21.0730838776,482.790008545,103.167999268
1631535037856065083,398069,1631535037845260789,,67.7978210449,21.0730838776,482.799987793,103.179000854
1631535037970880997,398070,1631535037968023563,,67.7978210449,21.0730857849,482.809997559,103.18699646
1631535038102126631,398071,1631535038097924433,,67.7978210449,21.0730857849,482.820007324,103.194000244
1631535038222243300,398072,1631535038218940012,,67.7978210449,21.0730857849,482.820007324,103.198997498
1631535038348813009,398073,1631535038345427513,,67.7978210449,21.0730857849,482.829986572,103.199996948
1631535038477409178,398074,1631535038472721445,,67.7978210449,21.0730857849,482.829986572,103.199996948
1631535038604967813,398075,1631535038595375868,,67.7978210449,21.0730857849,482.820007324,103.194999695
1631535038723429126,398076,1631535038718715441,,67.7978210449,21.0730857849,482.809997559,103.189002991
1631535038856939490,398077,1631535038845511198,,67.7978210449,21.0730857849,482.809997559,103.18800354
1631535038972711402,398078,1631535038968663572,,67.7978210449,21.0730857849,482.820007324,103.191001892
1631535039104770410,398079,1631535039099928534,,67.7978210449,21.0730857849,482.820007324,103.194000244
1631535039227162338,398080,1631535039218249271,,67.7978210449,21.0730857849,482.820007324,103.195999146
1631535039355194892,398081,1631535039344699749,,67.7978210449,21.0730857849,482.829986572,103.199996948
1631535039475016969,398082,1631535039470914707,,67.7978210449,21.0730857849,482.820007324,103.198997498
1631535039599364028,398083,1631535039595166918,,67.7978210449,21.0730876923,482.820007324,103.196998596
